{
    "provincias": [
        {
            "nombre_completo": "Provincia de Misiones",
            "fuente": "IGN",
            "iso_id": "AR-N",
            "nombre": "Misiones",
            "id": "54",
            "uuid": "f9109fda-e7fb-4510-b47b-353b86b5b307",
            "categoria": "Provincia",
            "iso_nombre": "Misiones",
            "centroide": {
                "lat": -26.8753965086829,
                "lon": -54.6516966230371
            }
        },
        {
            "nombre_completo": "Provincia de San Luis",
            "fuente": "IGN",
            "iso_id": "AR-D",
            "nombre": "San Luis",
            "id": "74",
            "uuid": "f2007c60-ec4c-4289-875e-062211a80a80",
            "categoria": "Provincia",
            "iso_nombre": "San Luis",
            "centroide": {
                "lat": -33.7577257449137,
                "lon": -66.0281298195836
            }
        },
        {
            "nombre_completo": "Provincia de San Juan",
            "fuente": "IGN",
            "iso_id": "AR-J",
            "nombre": "San Juan",
            "id": "70",
            "uuid": "e36ee7ba-33b7-491b-96b8-dbf1b7a3f13e",
            "categoria": "Provincia",
            "iso_nombre": "San Juan",
            "centroide": {
                "lat": -30.8653679979618,
                "lon": -68.8894908486844
            }
        },
        {
            "nombre_completo": "Provincia de Entre Ríos",
            "fuente": "IGN",
            "iso_id": "AR-E",
            "nombre": "Entre Ríos",
            "id": "30",
            "uuid": "02ee1d8b-0b6f-49e9-9494-009139fa3074",
            "categoria": "Provincia",
            "iso_nombre": "Entre Ríos",
            "centroide": {
                "lat": -32.0588735436448,
                "lon": -59.2014475514635
            }
        },
        {
            "nombre_completo": "Provincia de Santa Cruz",
            "fuente": "IGN",
            "iso_id": "AR-Z",
            "nombre": "Santa Cruz",
            "id": "78",
            "uuid": "229a7961-73fa-4f21-aeea-d531072840d0",
            "categoria": "Provincia",
            "iso_nombre": "Santa Cruz",
            "centroide": {
                "lat": -48.8154851827063,
                "lon": -69.9557621671973
            }
        },
        {
            "nombre_completo": "Provincia de Río Negro",
            "fuente": "IGN",
            "iso_id": "AR-R",
            "nombre": "Río Negro",
            "id": "62",
            "uuid": "256e00f7-8e72-4722-8cef-49fba7c14cde",
            "categoria": "Provincia",
            "iso_nombre": "Río Negro",
            "centroide": {
                "lat": -40.4057957178801,
                "lon": -67.229329893694
            }
        },
        {
            "nombre_completo": "Provincia del Chubut",
            "fuente": "IGN",
            "iso_id": "AR-U",
            "nombre": "Chubut",
            "id": "26",
            "uuid": "b10b2634-faf3-48cd-8760-dfdd6b448d49",
            "categoria": "Provincia",
            "iso_nombre": "Chubut",
            "centroide": {
                "lat": -43.7886233529878,
                "lon": -68.5267593943345
            }
        },
        {
            "nombre_completo": "Provincia de Córdoba",
            "fuente": "IGN",
            "iso_id": "AR-X",
            "nombre": "Córdoba",
            "id": "14",
            "uuid": "aa157d5b-3f0c-432a-af74-b479e9a3b96c",
            "categoria": "Provincia",
            "iso_nombre": "Córdoba",
            "centroide": {
                "lat": -32.142932663607,
                "lon": -63.8017532741662
            }
        },
        {
            "nombre_completo": "Provincia de Mendoza",
            "fuente": "IGN",
            "iso_id": "AR-M",
            "nombre": "Mendoza",
            "id": "50",
            "uuid": "019520eb-a136-43c4-898b-f8b0f85b0a1f",
            "categoria": "Provincia",
            "iso_nombre": "Mendoza",
            "centroide": {
                "lat": -34.6298873058957,
                "lon": -68.5831228183798
            }
        },
        {
            "nombre_completo": "Provincia de La Rioja",
            "fuente": "IGN",
            "iso_id": "AR-F",
            "nombre": "La Rioja",
            "id": "46",
            "uuid": "b813f51a-d787-476d-8227-202c88791662",
            "categoria": "Provincia",
            "iso_nombre": "La Rioja",
            "centroide": {
                "lat": -29.685776298315,
                "lon": -67.1817359694432
            }
        },
        {
            "nombre_completo": "Provincia de Catamarca",
            "fuente": "IGN",
            "iso_id": "AR-K",
            "nombre": "Catamarca",
            "id": "10",
            "uuid": "49cca54d-690d-47a0-bb2e-f9290ab8d1cd",
            "categoria": "Provincia",
            "iso_nombre": "Catamarca",
            "centroide": {
                "lat": -27.3358332810217,
                "lon": -66.9476824299928
            }
        },
        {
            "nombre_completo": "Provincia de La Pampa",
            "fuente": "IGN",
            "iso_id": "AR-L",
            "nombre": "La Pampa",
            "id": "42",
            "uuid": "a2a72c74-680d-408a-8142-2ef4bf645994",
            "categoria": "Provincia",
            "iso_nombre": "La Pampa",
            "centroide": {
                "lat": -37.1315537735949,
                "lon": -65.4466546606951
            }
        },
        {
            "nombre_completo": "Provincia de Santiago del Estero",
            "fuente": "IGN",
            "iso_id": "AR-G",
            "nombre": "Santiago del Estero",
            "id": "86",
            "uuid": "a2f79135-6bfe-455d-9238-db6a30e685e8",
            "categoria": "Provincia",
            "iso_nombre": "Santiago del Estero",
            "centroide": {
                "lat": -27.7824116550944,
                "lon": -63.2523866568588
            }
        },
        {
            "nombre_completo": "Provincia de Corrientes",
            "fuente": "IGN",
            "iso_id": "AR-W",
            "nombre": "Corrientes",
            "id": "18",
            "uuid": "fb3eb19a-b555-4e34-bfb5-d7c98a752f85",
            "categoria": "Provincia",
            "iso_nombre": "Corrientes",
            "centroide": {
                "lat": -28.7743047046407,
                "lon": -57.8012191977913
            }
        },
        {
            "nombre_completo": "Provincia de Santa Fe",
            "fuente": "IGN",
            "iso_id": "AR-S",
            "nombre": "Santa Fe",
            "id": "82",
            "uuid": "410a226d-dd76-4746-9bf4-b07c30114b66",
            "categoria": "Provincia",
            "iso_nombre": "Santa Fe",
            "centroide": {
                "lat": -30.7069271588117,
                "lon": -60.9498369430241
            }
        },
        {
            "nombre_completo": "Provincia de Tucumán",
            "fuente": "IGN",
            "iso_id": "AR-T",
            "nombre": "Tucumán",
            "id": "90",
            "uuid": "2c8dc0e1-15e8-4a28-b8db-34b6cd0b95a4",
            "categoria": "Provincia",
            "iso_nombre": "Tucumán",
            "centroide": {
                "lat": -26.9478001830786,
                "lon": -65.3647579441481
            }
        },
        {
            "nombre_completo": "Provincia del Neuquén",
            "fuente": "IGN",
            "iso_id": "AR-Q",
            "nombre": "Neuquén",
            "id": "58",
            "uuid": "954757d0-e37c-40ad-b526-f7af7a44759b",
            "categoria": "Provincia",
            "iso_nombre": "Neuquén",
            "centroide": {
                "lat": -38.6417575824599,
                "lon": -70.1185705180601
            }
        },
        {
            "nombre_completo": "Provincia de Salta",
            "fuente": "IGN",
            "iso_id": "AR-A",
            "nombre": "Salta",
            "id": "66",
            "uuid": "7fbc137b-6ae0-467f-a832-0ec1dd697d4e",
            "categoria": "Provincia",
            "iso_nombre": "Salta",
            "centroide": {
                "lat": -24.2991344492002,
                "lon": -64.8144629600627
            }
        },
        {
            "nombre_completo": "Provincia del Chaco",
            "fuente": "IGN",
            "iso_id": "AR-H",
            "nombre": "Chaco",
            "id": "22",
            "uuid": "30b21eb3-f9a4-487e-88aa-209386bb43dc",
            "categoria": "Provincia",
            "iso_nombre": "Chaco",
            "centroide": {
                "lat": -26.3864309061226,
                "lon": -60.7658307438603
            }
        },
        {
            "nombre_completo": "Provincia de Formosa",
            "fuente": "IGN",
            "iso_id": "AR-P",
            "nombre": "Formosa",
            "id": "34",
            "uuid": "40e5a3eb-bdaf-41ff-a6a8-4e6c2245dc9b",
            "categoria": "Provincia",
            "iso_nombre": "Formosa",
            "centroide": {
                "lat": -24.894972594871,
                "lon": -59.9324405800872
            }
        },
        {
            "nombre_completo": "Provincia de Jujuy",
            "fuente": "IGN",
            "iso_id": "AR-Y",
            "nombre": "Jujuy",
            "id": "38",
            "uuid": "347d2f9d-906f-48ec-9e08-f6cdbcd17118",
            "categoria": "Provincia",
            "iso_nombre": "Jujuy",
            "centroide": {
                "lat": -23.3200784211351,
                "lon": -65.7642522180337
            }
        },
        {
            "nombre_completo": "Ciudad Autónoma de Buenos Aires",
            "fuente": "IGN",
            "iso_id": "AR-C",
            "nombre": "Ciudad Autónoma de Buenos Aires",
            "id": "02",
            "uuid": "ffa9ca45-1864-41d8-8347-14ee9e44d7b3",
            "categoria": "Ciudad Autónoma",
            "iso_nombre": "Ciudad Autónoma de Buenos Aires",
            "centroide": {
                "lat": -34.6144934119689,
                "lon": -58.4458563545429
            }
        },
        {
            "nombre_completo": "Provincia de Buenos Aires",
            "fuente": "IGN",
            "iso_id": "AR-B",
            "nombre": "Buenos Aires",
            "id": "06",
            "uuid": "7e777339-92f8-4bd6-8843-0b11d9738f9e",
            "categoria": "Provincia",
            "iso_nombre": "Buenos Aires",
            "centroide": {
                "lat": -36.6769415180527,
                "lon": -60.5588319815719
            }
        },
        {
            "nombre_completo": "Provincia de Tierra del Fuego, Antártida e Islas del Atlántico Sur",
            "fuente": "IGN",
            "iso_id": "AR-V",
            "nombre": "Tierra del Fuego, Antártida e Islas del Atlántico Sur",
            "id": "94",
            "uuid": "5a3cc5a7-46b5-4d6f-bf2b-593679ff9133",
            "categoria": "Provincia",
            "iso_nombre": "Tierra del Fuego",
            "centroide": {
                "lat": -82.52151781221,
                "lon": -50.7427486049785
            }
        }
    ],
    "total": 24,
    "cantidad": 24,
    "parametros": {},
    "inicio": 0
}